{
  "slug": "dutamas",
  "units": [
    [
      {
        "title": "Taman Sri Segambut, Kuala Lumpur",
        "sqft": null,
        "bedrooms": "SMALL",
        "price_month": 440,
        "url": "https://speedhome.com/details/taman-sri-segambut-kuala-lumpur-pauqzool",
        "url_slug": "taman-sri-segambut-kuala-lumpur-pauqzool",
        "lat": 3.195986811229107,
        "lng": 101.65817988650818
      },
      {
        "title": "Laman Suria, Mont Kiara",
        "sqft": 1034,
        "bedrooms": 2,
        "price_month": 2900,
        "url": "https://speedhome.com/details/laman-suria-mont-kiara-uhqvfmfj",
        "url_slug": "laman-suria-mont-kiara-uhqvfmfj",
        "lat": 3.16881,
        "lng": 101.65
      },
      {
        "title": "Taman Sri Segambut, Kuala Lumpur",
        "sqft": null,
        "bedrooms": "MEDIUM",
        "price_month": 450,
        "url": "https://speedhome.com/details/taman-sri-segambut-kuala-lumpur-vfgizhcq",
        "url_slug": "taman-sri-segambut-kuala-lumpur-vfgizhcq",
        "lat": 3.195986811229107,
        "lng": 101.65817988650818
      },
      {
        "title": "Taman Sri Segambut, Kuala Lumpur",
        "sqft": null,
        "bedrooms": "MASTER",
        "price_month": 700,
        "url": "https://speedhome.com/details/taman-sri-segambut-kuala-lumpur-bkaenyrb",
        "url_slug": "taman-sri-segambut-kuala-lumpur-bkaenyrb",
        "lat": 3.195986811229107,
        "lng": 101.65817988650818
      },
      {
        "title": "United Point Residence, Segambut",
        "sqft": 958,
        "bedrooms": 3,
        "price_month": 3500,
        "url": "https://speedhome.com/details/united-point-residence-segambut-jisissyx",
        "url_slug": "united-point-residence-segambut-jisissyx",
        "lat": 3.1918287809,
        "lng": 101.6535115242
      },
      {
        "title": "The Pano, Kuala Lumpur",
        "sqft": 500,
        "bedrooms": 1,
        "price_month": 1700,
        "url": "https://speedhome.com/details/the-pano-kuala-lumpur-nzncumdv",
        "url_slug": "the-pano-kuala-lumpur-nzncumdv",
        "lat": 3.1855916,
        "lng": 101.6815326
      },
      {
        "title": "Sophia Condominium, Mont Kiara",
        "sqft": 1000,
        "bedrooms": 2,
        "price_month": 3500,
        "url": "https://speedhome.com/details/sophia-condominium-mont-kiara-ahomfuix",
        "url_slug": "sophia-condominium-mont-kiara-ahomfuix",
        "lat": 3.1701,
        "lng": 101.654
      },
      {
        "title": "The Pano, Kuala Lumpur",
        "sqft": 300,
        "bedrooms": 1,
        "price_month": 1400,
        "url": "https://speedhome.com/details/the-pano-kuala-lumpur-bzxrvqbz",
        "url_slug": "the-pano-kuala-lumpur-bzxrvqbz",
        "lat": 3.1855916,
        "lng": 101.6815326
      },
      {
        "title": "MET 1 Residences, Kuala Lumpur",
        "sqft": 677,
        "bedrooms": 1,
        "price_month": 2999,
        "url": "https://speedhome.com/details/met-1-residences-kuala-lumpur-uiachrkj",
        "url_slug": "met-1-residences-kuala-lumpur-uiachrkj",
        "lat": 3.1494727,
        "lng": 101.7139056
      },
      {
        "title": "Dorsett Hartamas, Kuala Lumpur",
        "sqft": 721,
        "bedrooms": 0,
        "price_month": 3000,
        "url": "https://speedhome.com/details/dorsett-hartamas-kuala-lumpur-bqqtivkv",
        "url_slug": "dorsett-hartamas-kuala-lumpur-bqqtivkv",
        "lat": 3.1627638811305037,
        "lng": 101.65577358650695
      },
      {
        "title": "Villa Crystal, Segambut",
        "sqft": 1050,
        "bedrooms": 1,
        "price_month": 2000,
        "url": "https://speedhome.com/details/villa-crystal-segambut-lyfindli",
        "url_slug": "villa-crystal-segambut-lyfindli",
        "lat": 3.1839445769,
        "lng": 101.6508507729
      },
      {
        "title": "Verve Suites, Mont Kiara",
        "sqft": 463,
        "bedrooms": 1,
        "price_month": 2400,
        "url": "https://speedhome.com/details/verve-suites-mont-kiara-sigflyhx",
        "url_slug": "verve-suites-mont-kiara-sigflyhx",
        "lat": 3.16741,
        "lng": 101.646
      },
      {
        "title": "M Centura, Sentul",
        "sqft": 850,
        "bedrooms": 3,
        "price_month": 2000,
        "url": "https://speedhome.com/details/m-centura-sentul-vqopblch",
        "url_slug": "m-centura-sentul-vqopblch",
        "lat": 3.2034807533,
        "lng": 101.6904997818
      },
      {
        "title": "Maxim Citylights, Sentul",
        "sqft": 1009,
        "bedrooms": 3,
        "price_month": 1800,
        "url": "https://speedhome.com/details/maxim-citylights-sentul-vyctxwze",
        "url_slug": "maxim-citylights-sentul-vyctxwze",
        "lat": 3.2072863583,
        "lng": 101.6906520724
      },
      {
        "title": "Bukit Damansara, Damansara Heights",
        "sqft": 2500,
        "bedrooms": 4,
        "price_month": 8500,
        "url": "https://speedhome.com/details/bukit-damansara-damansara-heights-wfvyjwdp",
        "url_slug": "bukit-damansara-damansara-heights-wfvyjwdp",
        "lat": 3.1520966609,
        "lng": 101.6566183604
      },
      {
        "title": "Chambers Residence, Kuala Lumpur",
        "sqft": 450,
        "bedrooms": 0,
        "price_month": 2200,
        "url": "https://speedhome.com/details/chambers-residence-kuala-lumpur-hhpnxodf",
        "url_slug": "chambers-residence-kuala-lumpur-hhpnxodf",
        "lat": 3.167427814418542,
        "lng": 101.69562076666155
      },
      {
        "title": "The ERA, Segambut",
        "sqft": 280,
        "bedrooms": 1,
        "price_month": 2000,
        "url": "https://speedhome.com/details/the-era-segambut-dsfsvhfe",
        "url_slug": "the-era-segambut-dsfsvhfe",
        "lat": 3.1819735165,
        "lng": 101.6753232479
      }
    ],
    {
      "method": "geo_radius_fallback_median",
      "area_name": "Dutamas",
      "radius_km": 12.0,
      "target_lat": 3.1839445769,
      "target_lng": 101.65817988650818,
      "geocode_succeeded": false,
      "total_before": 61,
      "total_after": 17,
      "dropped_no_coords": 44,
      "dropped_out_of_radius": 0
    }
  ]
}
